{
  "estaciones": [
    {"nombre": "Carvajal-Sevillana", "lat": 4.5958, "lon": -74.1489, "pm25": 39.7, "estrato": 2},
    {"nombre": "Kennedy", "lat": 4.6254, "lon": -74.1475, "pm25": 30.6, "estrato": 3},
    {"nombre": "Ciudad Bolívar", "lat": 4.5709, "lon": -74.1761, "pm25": 27.0, "estrato": 1},
    {"nombre": "Fontibón", "lat": 4.6771, "lon": -74.1459, "pm25": 30.6, "estrato": 3},
    {"nombre": "Usme", "lat": 4.5013, "lon": -74.1102, "pm25": 20.0, "estrato": 2},
    {"nombre": "San Cristóbal", "lat": 4.5709, "lon": -74.0835, "pm25": 18.6, "estrato": 2},
    {"nombre": "Usaquén", "lat": 4.6965, "lon": -74.0323, "pm25": 19.0, "estrato": 5},
    {"nombre": "Chapinero", "lat": 4.6359, "lon": -74.0632, "pm25": 22.0, "estrato": 4}
  ],
  "promedioMensual2024": {
    "enero": 35, "febrero": 42, "marzo": 38, "abril": 45, 
    "mayo": 40, "junio": 37, "julio": 33, "agosto": 35,
    "septiembre": 36, "octubre": 38, "noviembre": 41
  },
  "alertas2024": {
    "amarilla": 12, 
    "naranja": 5, 
    "roja": 1,
    "fechaUltimaRoja": "22 de marzo 2024"
  },
  "comparacionHistorica": {
    "2019": 24.5,
    "2020": 22.1,
    "2021": 23.8,
    "2022": 25.2,
    "2023": 26.4,
    "2024": 30.2
  }
}